{"type":"FeatureCollection","features":[{"type":"Feature","id":11016,"properties":{"nombre":"Flamencos","descripcion":"","icono":"aves.png"},"geometry":{"type":"Point","coordinates":[-58.419120900227,-34.580390738336]}},{"type":"Feature","id":11017,"properties":{"nombre":"Aves acu\u00e1ticas","descripcion":"","icono":"aves.png"},"geometry":{"type":"Point","coordinates":[-58.419158451154,-34.580593905821]}},{"type":"Feature","id":11018,"properties":{"nombre":"Aves Sudamericanas","descripcion":"","icono":"aves.png"},"geometry":{"type":"Point","coordinates":[-58.418582379555,-34.579879371147]}},{"type":"Feature","id":11019,"properties":{"nombre":"Aves rapaces y carro\u00f1eras","descripcion":"","icono":"aves.png"},"geometry":{"type":"Point","coordinates":[-58.417470365472,-34.579572977978]}},{"type":"Feature","id":11020,"properties":{"nombre":"Guacamayos","descripcion":"","icono":"aves.png"},"geometry":{"type":"Point","coordinates":[-58.416625469632,-34.579652479139]}},{"type":"Feature","id":11021,"properties":{"nombre":"Aves rapaces","descripcion":"","icono":"aves.png"},"geometry":{"type":"Point","coordinates":[-58.416671067185,-34.579495685109]}},{"type":"Feature","id":11022,"properties":{"nombre":"Aviario","descripcion":"","icono":"aves.png"},"geometry":{"type":"Point","coordinates":[-58.416700646222,-34.57894346803]}},{"type":"Feature","id":11023,"properties":{"nombre":"Avestruz","descripcion":"","icono":"aves.png"},"geometry":{"type":"Point","coordinates":[-58.416395397746,-34.577725104108]}},{"type":"Feature","id":11024,"properties":{"nombre":"Condor","descripcion":"","icono":"aves.png"},"geometry":{"type":"Point","coordinates":[-58.414313458924,-34.576897588639]}}]}